{"index": {"_index": "restaurants"}}
{"business_id": "XsXLVWr1UZWVhKThNvNiaA", "name": "Blue Willow \u591c\u6765\u6e58", "address": "40 W 56th St, New York, NY 10019", "coordinates": "40.76292,-73.976546", "number_of_reviews": 1084, "rating": 4.4, "zip_code": "10019", "cuisine": "Chinese"}
{"index": {"_index": "restaurants"}}
{"business_id": "BNaveJmi-OUGKG9sRfrIhA", "name": "Mr. Sun", "address": "48 W 48th St, New York, NY 10036", "coordinates": "40.75809,-73.98026", "number_of_reviews": 280, "rating": 4.3, "zip_code": "10036", "cuisine": "Chinese"}
{"index": {"_index": "restaurants"}}
{"business_id": "iu1TLnNH13AdBDg_LmnuHQ", "name": "Lunar", "address": "12 E 37th St, New York, NY 10016", "coordinates": "40.74981466503257,-73.98231633276964", "number_of_reviews": 14, "rating": 4.6, "zip_code": "10016", "cuisine": "Chinese"}
{"index": {"_index": "restaurants"}}
{"business_id": "h0pRCiJDrCN7tm3VX5tILQ", "name": "CHILI", "address": "13 E 37th St, New York, NY 10016", "coordinates": "40.75002,-73.98215", "number_of_reviews": 766, "rating": 4.6, "zip_code": "10016", "cuisine": "Chinese"}
{"index": {"_index": "restaurants"}}
{"business_id": "UK1oGbr8GU2rufpnJR4-HQ", "name": "Joe's Home of Soup Dumplings", "address": "7 E 48th St, between Fifth and Madison avenues, New York, NY 10017", "coordinates": "40.75723,-73.97702", "number_of_reviews": 586, "rating": 4.5, "zip_code": "10017", "cuisine": "Chinese"}
{"index": {"_index": "restaurants"}}
{"business_id": "bVkjBJlAIwKAj9Aw1KVWjA", "name": "Dim Sum Palace", "address": "334 W 46th St, New York, NY 10036", "coordinates": "40.76015,-73.9893699", "number_of_reviews": 1750, "rating": 4.1, "zip_code": "10036", "cuisine": "Chinese"}
{"index": {"_index": "restaurants"}}
{"business_id": "pVlKM-vyOJxfoJ9fwMDDfA", "name": "Sky Pavilion", "address": "325 W 42nd St, New York, NY 10036", "coordinates": "40.757968,-73.990862", "number_of_reviews": 3, "rating": 4.7, "zip_code": "10036", "cuisine": "Chinese"}
{"index": {"_index": "restaurants"}}
{"business_id": "ojbH3wnRu050hRhkmoxRiA", "name": "Han Dynasty", "address": "215 W 85th St, New York, NY 10024", "coordinates": "40.7875228,-73.97639697790984", "number_of_reviews": 731, "rating": 3.8, "zip_code": "10024", "cuisine": "Chinese"}
{"index": {"_index": "restaurants"}}
{"business_id": "ZWP7yq9C2bhCcLkMR9BmVw", "name": "Mala Project", "address": "245 East 53rd St, New York, NY 10022", "coordinates": "40.75714784759798,-73.96769121739368", "number_of_reviews": 97, "rating": 4.4, "zip_code": "10022", "cuisine": "Chinese"}
{"index": {"_index": "restaurants"}}
{"business_id": "lSuyHj3cCXbKjcZaakF9lQ", "name": "Dimsum Garden", "address": "1068 2nd Ave, New York, NY 10022", "coordinates": "40.758701,-73.965463", "number_of_reviews": 29, "rating": 4.4, "zip_code": "10022", "cuisine": "Chinese"}
{"index": {"_index": "restaurants"}}
{"business_id": "p4xNh2NAy85Br77XaomFOw", "name": "OOHU", "address": "128 W 36th St, New York, NY 10018", "coordinates": "40.751493955047785,-73.9883517", "number_of_reviews": 47, "rating": 4.6, "zip_code": "10018", "cuisine": "Chinese"}
{"index": {"_index": "restaurants"}}
{"business_id": "0CjK3esfpFcxIopebzjFxA", "name": "Joe's Shanghai", "address": "46 Bowery St, New York, NY 10013", "coordinates": "40.7156608,-73.9967012", "number_of_reviews": 7327, "rating": 3.8, "zip_code": "10013", "cuisine": "Chinese"}
{"index": {"_index": "restaurants"}}
{"business_id": "sRWRA4dcN_NR1JGpuRVouA", "name": "Nan Xiang Xiao Long Bao - Manhattan", "address": "24 W 33rd St, New York, NY 10001", "coordinates": "40.74822527534694,-73.9857786", "number_of_reviews": 945, "rating": 4.6, "zip_code": "10001", "cuisine": "Chinese"}
{"index": {"_index": "restaurants"}}
{"business_id": "qrncvjkiKN5Z-JC06ygy6A", "name": "Hutong New York", "address": "Inside Beacon Courtyard, New York, NY 10022", "coordinates": "40.761551,-73.967443", "number_of_reviews": 583, "rating": 3.6, "zip_code": "10022", "cuisine": "Chinese"}
{"index": {"_index": "restaurants"}}
{"business_id": "DIwe3i_-OkvfKAHrNDGtSw", "name": "Red Sorghum \u591c\u5bb4", "address": "28-03 Jackson Ave, New York, NY 11101", "coordinates": "40.74852,-73.93789", "number_of_reviews": 51, "rating": 4.4, "zip_code": "11101", "cuisine": "Chinese"}
{"index": {"_index": "restaurants"}}
{"business_id": "lynQoI3w_pzYfHGeuUU-Qg", "name": "Shu Jiao Fu Zhou", "address": "295 Grand St, New York, NY 10002", "coordinates": "40.7174109,-73.99210041198651", "number_of_reviews": 1383, "rating": 4.5, "zip_code": "10002", "cuisine": "Chinese"}
{"index": {"_index": "restaurants"}}
{"business_id": "83zDAk03lFXkgImgkLhT9w", "name": "Chi Restaurant & Bar", "address": "492 9th Ave, New York, NY 10018", "coordinates": "40.75547,-73.99439", "number_of_reviews": 128, "rating": 4.3, "zip_code": "10018", "cuisine": "Chinese"}
{"index": {"_index": "restaurants"}}
{"business_id": "4FD0TAxe70nb3ngk3sXF9Q", "name": "Uluh", "address": "152 2nd Ave, Ste A, New York, NY 10003", "coordinates": "40.729354,-73.98665", "number_of_reviews": 948, "rating": 4.4, "zip_code": "10003", "cuisine": "Chinese"}
{"index": {"_index": "restaurants"}}
{"business_id": "QXgp1Ac10x6yDAPWFIxnbA", "name": "Charoen Krung", "address": "955 2nd Ave, New York, NY 10022", "coordinates": "40.755354,-73.968495", "number_of_reviews": 84, "rating": 4.8, "zip_code": "10022", "cuisine": "Chinese"}
{"index": {"_index": "restaurants"}}
{"business_id": "WVsPyl-DGRu0O_rQYdIMVQ", "name": "The Best Sichuan", "address": "47 W 39th St, New York, NY 10018", "coordinates": "40.75266,-73.98459", "number_of_reviews": 142, "rating": 4.3, "zip_code": "10018", "cuisine": "Chinese"}
{"index": {"_index": "restaurants"}}
{"business_id": "wfhMIiMh2A2psCGONOVSlg", "name": "Han Dynasty", "address": "90 3rd Ave, New York, NY 10003", "coordinates": "40.732072,-73.988074", "number_of_reviews": 1374, "rating": 3.9, "zip_code": "10003", "cuisine": "Chinese"}
{"index": {"_index": "restaurants"}}
{"business_id": "A-ert0jDRBfku9ogyW_mEg", "name": "Spice Symphony", "address": "150 E 50th St, New York, NY 10022", "coordinates": "40.7558937072754,-73.9715347290039", "number_of_reviews": 667, "rating": 4.4, "zip_code": "10022", "cuisine": "Chinese"}
{"index": {"_index": "restaurants"}}
{"business_id": "FXhSEZfIqjMZh4hR0_8jMQ", "name": "China Xiang \u4e2d\u56fd\u6e58", "address": "360 W 42nd Street, New York, NY 10036", "coordinates": "40.7582902125633,-73.9925113993899", "number_of_reviews": 560, "rating": 3.8, "zip_code": "10036", "cuisine": "Chinese"}
{"index": {"_index": "restaurants"}}
{"business_id": "LT0yyLNM84EiJj9DL0rfHA", "name": "Hui Restaurant & Bar", "address": "314 E 70th St, New York, NY 10021", "coordinates": "40.76701,-73.95846", "number_of_reviews": 300, "rating": 4.3, "zip_code": "10021", "cuisine": "Chinese"}
{"index": {"_index": "restaurants"}}
{"business_id": "oowNI_aUmGEFa_VW8BFgRg", "name": "Tri Dim Shanghai", "address": "1378 3rd Ave, New York, NY 10075", "coordinates": "40.773951,-73.957927", "number_of_reviews": 556, "rating": 4.0, "zip_code": "10075", "cuisine": "Chinese"}
{"index": {"_index": "restaurants"}}
{"business_id": "xq0cX_DgxiJMXwhmEl9kUA", "name": "Caf\u00e9 China", "address": "59 W 37th St, New York, NY 10018", "coordinates": "40.75158498670787,-73.98582411501887", "number_of_reviews": 1960, "rating": 3.9, "zip_code": "10018", "cuisine": "Chinese"}
{"index": {"_index": "restaurants"}}
{"business_id": "Ece_DRuD1yQjRPJBAebRpw", "name": "Kung Fu Little Steamed Buns Ramen", "address": "146 E 55th St, New York, NY 10022", "coordinates": "40.7592514705491,-73.9694294705987", "number_of_reviews": 398, "rating": 3.4, "zip_code": "10022", "cuisine": "Chinese"}
{"index": {"_index": "restaurants"}}
{"business_id": "jc7lVTvmYMIK5RNpENtS6w", "name": "Szechuan Mountain House", "address": "23 St Marks Pl, New York, NY 10003", "coordinates": "40.72911,-73.98858", "number_of_reviews": 726, "rating": 4.3, "zip_code": "10003", "cuisine": "Chinese"}
{"index": {"_index": "restaurants"}}
{"business_id": "1jAB_uaI8-P_wSqOo2S3KQ", "name": "Mazu Szechuan", "address": "495 3rd Ave, New York, NY 10016", "coordinates": "40.745234,-73.97812", "number_of_reviews": 135, "rating": 4.5, "zip_code": "10016", "cuisine": "Chinese"}
{"index": {"_index": "restaurants"}}
{"business_id": "0dDCDQz7DrKkSvu9h2hcQw", "name": "Chow House", "address": "181 Bleecker St, New York, NY 10012", "coordinates": "40.72915,-74.00072", "number_of_reviews": 656, "rating": 4.4, "zip_code": "10012", "cuisine": "Chinese"}
{"index": {"_index": "restaurants"}}
{"business_id": "afbl_jCNpomzJiDBdomb6g", "name": "Oceans New York", "address": "233 Park Ave S, New York, NY 10003", "coordinates": "40.737408,-73.987887", "number_of_reviews": 231, "rating": 4.6, "zip_code": "10003", "cuisine": "Chinese"}
{"index": {"_index": "restaurants"}}
{"business_id": "w4aW7geanPgny-dxsDNkMA", "name": "Moon Kee", "address": "2642 Broadway, New York, NY 10025", "coordinates": "40.7973721,-73.9694833", "number_of_reviews": 40, "rating": 4.3, "zip_code": "10025", "cuisine": "Chinese"}
{"index": {"_index": "restaurants"}}
{"business_id": "FcQA5tV8wlz6jg_UK_s7Hw", "name": "Simply Noodles", "address": "267  Amsterdam Ave, New York, NY 10023", "coordinates": "40.7788403,-73.98118199999999", "number_of_reviews": 133, "rating": 4.6, "zip_code": "10023", "cuisine": "Chinese"}
{"index": {"_index": "restaurants"}}
{"business_id": "oJ6fy4fBv_3WskxH4NfNBg", "name": "Chef Huang Jian Bing & Peking Duck", "address": "635 2nd Ave, New York, NY 10016", "coordinates": "40.74531205210646,-73.9757772", "number_of_reviews": 94, "rating": 4.6, "zip_code": "10016", "cuisine": "Chinese"}
{"index": {"_index": "restaurants"}}
{"business_id": "GuzlMBKNoClNx5I1-x-DDg", "name": "53 NYC", "address": "53 W 53rd St, New York, NY 10019", "coordinates": "40.76179318437133,-73.9780863", "number_of_reviews": 136, "rating": 4.2, "zip_code": "10019", "cuisine": "Chinese"}
{"index": {"_index": "restaurants"}}
{"business_id": "8plXW6ZQI1awPu1scms3jQ", "name": "Silky Kitchen", "address": "138 W 46th St, New York, NY 10036", "coordinates": "40.757889,-73.984009", "number_of_reviews": 85, "rating": 4.5, "zip_code": "10036", "cuisine": "Chinese"}
{"index": {"_index": "restaurants"}}
{"business_id": "ICNwlgXTrvFrGvaScUp8Ew", "name": "For U", "address": "155 3rd Ave, New York, NY 10003", "coordinates": "40.73415,-73.98633", "number_of_reviews": 41, "rating": 4.9, "zip_code": "10003", "cuisine": "Chinese"}
{"index": {"_index": "restaurants"}}
{"business_id": "1dFOF1HPaThSCsdiqR7DrA", "name": "Land of Plenty", "address": "204E 58th St, New York, NY 10022", "coordinates": "40.760590326928856,-73.96659593005877", "number_of_reviews": 374, "rating": 3.6, "zip_code": "10022", "cuisine": "Chinese"}
{"index": {"_index": "restaurants"}}
{"business_id": "QaolMEijS7L6eodSneOdng", "name": "Tri Dim Shanghai West", "address": "467 Columbus Ave, New York, NY 10024", "coordinates": "40.78412,-73.97368", "number_of_reviews": 248, "rating": 4.1, "zip_code": "10024", "cuisine": "Chinese"}
{"index": {"_index": "restaurants"}}
{"business_id": "R3UNnA8EbjhNWBHS0wJ0VA", "name": "Grand Sichuan Eastern", "address": "1049 2nd Ave, New York, NY 10022", "coordinates": "40.75831,-73.96636", "number_of_reviews": 283, "rating": 3.3, "zip_code": "10022", "cuisine": "Chinese"}
{"index": {"_index": "restaurants"}}
{"business_id": "Qwd4Tv-CqgO2Yl9zZgkKOQ", "name": "Shun Lee Palace", "address": "155 E 55th St, New York, NY 10022", "coordinates": "40.75945,-73.96907", "number_of_reviews": 343, "rating": 3.2, "zip_code": "10022", "cuisine": "Chinese"}
{"index": {"_index": "restaurants"}}
{"business_id": "_fTRTishY3G5dLPLYGCVAw", "name": "Tipsy Shanghai", "address": "594 3rd Ave, New York, NY 10016", "coordinates": "40.74879,-73.9761", "number_of_reviews": 55, "rating": 4.0, "zip_code": "10016", "cuisine": "Chinese"}
{"index": {"_index": "restaurants"}}
{"business_id": "wDuf4Qz9qsC62amLZgWNJQ", "name": "Little Alley", "address": "550 3rd Ave, New York, NY 10016", "coordinates": "40.74744,-73.97728", "number_of_reviews": 550, "rating": 3.9, "zip_code": "10016", "cuisine": "Chinese"}
{"index": {"_index": "restaurants"}}
{"business_id": "83BXSwE0166sObnXLUE4bQ", "name": "Land", "address": "450 Amsterdam Ave, New York, NY 10024", "coordinates": "40.78497,-73.9772182", "number_of_reviews": 1131, "rating": 3.8, "zip_code": "10024", "cuisine": "Chinese"}
{"index": {"_index": "restaurants"}}
{"business_id": "X8ZS-dgiMIJvhwf9SaDnjw", "name": "Wah Fung No 1", "address": "79 Chrystie St, New York, NY 10002", "coordinates": "40.71735,-73.99457", "number_of_reviews": 2082, "rating": 4.5, "zip_code": "10002", "cuisine": "Chinese"}
{"index": {"_index": "restaurants"}}
{"business_id": "-lgNzAEyFr8LCTuBTWnAMg", "name": "Dim Sum Palace", "address": "28 W 56th St, New York, NY 10019", "coordinates": "40.762765496672955,-73.97609185077448", "number_of_reviews": 473, "rating": 4.0, "zip_code": "10019", "cuisine": "Chinese"}
{"index": {"_index": "restaurants"}}
{"business_id": "Q85ScF9s6vlS5_i453AFvg", "name": "Tangy Noodle", "address": "98 8th Ave, New York, NY 10011", "coordinates": "40.740203,-74.00193", "number_of_reviews": 97, "rating": 4.4, "zip_code": "10011", "cuisine": "Chinese"}
{"index": {"_index": "restaurants"}}
{"business_id": "mUl0wtO7tPkBocuJqZ-7Dw", "name": "Dun Huang -  Grand Central", "address": "320 Lexington Ave, New York, NY 10016", "coordinates": "40.74922,-73.97785", "number_of_reviews": 337, "rating": 4.4, "zip_code": "10016", "cuisine": "Chinese"}
{"index": {"_index": "restaurants"}}
{"business_id": "0vg2Z-HPwkyVVX613j2ysg", "name": "Peng's Noodle Folk", "address": "1016 Lexington Ave, New York, NY 10021", "coordinates": "40.7711335538802,-73.9620354269869", "number_of_reviews": 565, "rating": 4.5, "zip_code": "10021", "cuisine": "Chinese"}
{"index": {"_index": "restaurants"}}
{"business_id": "x0k5kFArHLijdY8-NEQ7Xg", "name": "Bengal Tiger Indian Food", "address": "58 W 56th St, Fl 2, New York, NY 10019", "coordinates": "40.763167,-73.977131", "number_of_reviews": 2370, "rating": 4.5, "zip_code": "10019", "cuisine": "Indian"}
{"index": {"_index": "restaurants"}}
{"business_id": "QqrEF8_ZQCGi63cL10J5oA", "name": "Chola", "address": "232 E 58th St, New York, NY 10022", "coordinates": "40.76016,-73.96582", "number_of_reviews": 683, "rating": 4.0, "zip_code": "10022", "cuisine": "Indian"}
{"index": {"_index": "restaurants"}}
{"business_id": "m5Whyz8O8jM4DrE808h71g", "name": "Darbar Grill", "address": "157 E 55th St, New York, NY 10022", "coordinates": "40.759357,-73.968826", "number_of_reviews": 594, "rating": 3.9, "zip_code": "10022", "cuisine": "Indian"}
{"index": {"_index": "restaurants"}}
{"business_id": "7DzfrwNwXmbS6OhYxPKfHQ", "name": "Kanyakumari", "address": "20 E 17th St, New York, NY 10003", "coordinates": "40.737313,-73.991263", "number_of_reviews": 15, "rating": 4.9, "zip_code": "10003", "cuisine": "Indian"}
{"index": {"_index": "restaurants"}}
{"business_id": "XLEdQl5s1bO5Iu43W_c96Q", "name": "Muna", "address": "152 East 46th St, New York, NY 10017", "coordinates": "40.753509,-73.973515", "number_of_reviews": 68, "rating": 4.7, "zip_code": "10017", "cuisine": "Indian"}
{"index": {"_index": "restaurants"}}
{"business_id": "1_pK5aQ47atF50oAKHADhA", "name": "Indian Accent", "address": "123 W 56th St, New York, NY 10019", "coordinates": "40.7643344624229,-73.9787312885132", "number_of_reviews": 735, "rating": 4.3, "zip_code": "10019", "cuisine": "Indian"}
{"index": {"_index": "restaurants"}}
{"business_id": "A-ert0jDRBfku9ogyW_mEg", "name": "Spice Symphony", "address": "150 E 50th St, New York, NY 10022", "coordinates": "40.7558937072754,-73.9715347290039", "number_of_reviews": 667, "rating": 4.4, "zip_code": "10022", "cuisine": "Indian"}
{"index": {"_index": "restaurants"}}
{"business_id": "HEs6llkn3wIP1ATXeIZQew", "name": "Pippali", "address": "129 E 27th St, New York, NY 10016", "coordinates": "40.74233,-73.98331", "number_of_reviews": 905, "rating": 4.1, "zip_code": "10016", "cuisine": "Indian"}
{"index": {"_index": "restaurants"}}
{"business_id": "z2VXX7wGl8XZ6_oo9W3koA", "name": "Patiala Indian Grill", "address": "371 W 34th St, New York, NY 10001", "coordinates": "40.7534700430117,-73.99595067259492", "number_of_reviews": 651, "rating": 4.3, "zip_code": "10001", "cuisine": "Indian"}
{"index": {"_index": "restaurants"}}
{"business_id": "Xqk91WuhMeYS4pedccUYgA", "name": "Gazab", "address": "179 Essex St, New York, NY 10002", "coordinates": "40.72191,-73.98666", "number_of_reviews": 279, "rating": 4.4, "zip_code": "10002", "cuisine": "Indian"}
{"index": {"_index": "restaurants"}}
{"business_id": "juAQ4DHCW_24LpV1T1JmBA", "name": "Patiala Indian Grill  & Bar", "address": "240 W 35th St, New York, NY 10001", "coordinates": "40.752147,-73.991864", "number_of_reviews": 21, "rating": 4.4, "zip_code": "10001", "cuisine": "Indian"}
{"index": {"_index": "restaurants"}}
{"business_id": "jf3JRaxUYU93x8LFU-8gkA", "name": "GupShup", "address": "115 E18th St, New York, NY 10003", "coordinates": "40.7368831,-73.98762055398464", "number_of_reviews": 737, "rating": 4.0, "zip_code": "10003", "cuisine": "Indian"}
{"index": {"_index": "restaurants"}}
{"business_id": "objNX6cuj1JyUijFjw21Qw", "name": "Bombay Bistro", "address": "31 Cornelia St, New York, NY 10014", "coordinates": "40.73136,-74.00253", "number_of_reviews": 283, "rating": 4.4, "zip_code": "10014", "cuisine": "Indian"}
{"index": {"_index": "restaurants"}}
{"business_id": "izRJeBfDQYJmd6ibIQ6Mfg", "name": "Mughlai Indian Cuisine", "address": "1724 2nd Ave, New York, NY 10128", "coordinates": "40.78002,-73.94978", "number_of_reviews": 629, "rating": 4.3, "zip_code": "10128", "cuisine": "Indian"}
{"index": {"_index": "restaurants"}}
{"business_id": "3kuaJMPOeTP1O1CK2fyOsA", "name": "Dadi Ma Home Style Indian Cooking", "address": "246 E 51st, Store 1, New York, NY 10022", "coordinates": "40.75557266682884,-73.9687464", "number_of_reviews": 17, "rating": 5.0, "zip_code": "10022", "cuisine": "Indian"}
{"index": {"_index": "restaurants"}}
{"business_id": "ut-560tVcs2g-ZU0Y_qqHQ", "name": "Saar Indian Bistro", "address": "241 W 51st St, New York, NY 10019", "coordinates": "40.7626659,-73.9847093", "number_of_reviews": 418, "rating": 4.4, "zip_code": "10019", "cuisine": "Indian"}
{"index": {"_index": "restaurants"}}
{"business_id": "u_CnSp9FieAuWqhvCn-A2A", "name": "Spice Mantra", "address": "1047 2nd Ave, New York, NY 10022", "coordinates": "40.75825,-73.96633", "number_of_reviews": 87, "rating": 4.7, "zip_code": "10022", "cuisine": "Indian"}
{"index": {"_index": "restaurants"}}
{"business_id": "t6PzD4uzBOfyCLcd_lT8cQ", "name": "Sathi", "address": "216 3rd Ave, New York, NY 10003", "coordinates": "40.73621,-73.98528", "number_of_reviews": 319, "rating": 4.7, "zip_code": "10003", "cuisine": "Indian"}
{"index": {"_index": "restaurants"}}
{"business_id": "9pMhRYYgV7E9L7pzECtJKA", "name": "The Drunken Munkey - UES", "address": "338 E 92nd St, New York, NY 10128", "coordinates": "40.78098,-73.94751", "number_of_reviews": 1385, "rating": 4.3, "zip_code": "10128", "cuisine": "Indian"}
{"index": {"_index": "restaurants"}}
{"business_id": "NgD-6ogFGc_c4z5_Ur4k2g", "name": "Dhaba Indian Cuisine", "address": "108 Lexington Ave, New York, NY 10016", "coordinates": "40.742364,-73.982813", "number_of_reviews": 1592, "rating": 3.7, "zip_code": "10016", "cuisine": "Indian"}
{"index": {"_index": "restaurants"}}
{"business_id": "qhXIW0LDT4XsoN2IE6dZHg", "name": "Ahimsa", "address": "204 E 38th St, New York, NY 10016", "coordinates": "40.7478959,-73.9758638", "number_of_reviews": 228, "rating": 4.4, "zip_code": "10016", "cuisine": "Indian"}
{"index": {"_index": "restaurants"}}
{"business_id": "mHRu4KZXYM_RwyFXBGncsA", "name": "INDAY All Day", "address": "658 Driggs Ave, Brooklyn, NY 11211", "coordinates": "40.71471,-73.95921", "number_of_reviews": 65, "rating": 4.4, "zip_code": "11211", "cuisine": "Indian"}
{"index": {"_index": "restaurants"}}
{"business_id": "jSMfV_e4Jh1DKoCnngOiQQ", "name": "Gulaabo", "address": "250 W 47th St, New York, NY 10036", "coordinates": "40.759859,-73.986707", "number_of_reviews": 54, "rating": 4.0, "zip_code": "10036", "cuisine": "Indian"}
{"index": {"_index": "restaurants"}}
{"business_id": "7VIUu8ay754GoUYEpsmxOA", "name": "Jazba", "address": "207 2nd Ave, New York, NY 10003", "coordinates": "40.731701,-73.98585", "number_of_reviews": 104, "rating": 4.4, "zip_code": "10003", "cuisine": "Indian"}
{"index": {"_index": "restaurants"}}
{"business_id": "RARUAVWONyRQovr0D6TGQg", "name": "Baazi", "address": "2588 Broadway, New York, NY 10025", "coordinates": "40.7955035,-73.9708505", "number_of_reviews": 75, "rating": 3.9, "zip_code": "10025", "cuisine": "Indian"}
{"index": {"_index": "restaurants"}}
{"business_id": "Txm8KtUh9Mn2E7980jTr5g", "name": "Dhamaka", "address": "119 Delancey St, Essex Market, Store  34, New York, NY 10002", "coordinates": "40.7180658,-73.9881304", "number_of_reviews": 474, "rating": 3.8, "zip_code": "10002", "cuisine": "Indian"}
{"index": {"_index": "restaurants"}}
{"business_id": "50eKjWOB-H9iuo1ocACOaQ", "name": "Imli Urban Indian Food", "address": "1136 1st Ave, New York, NY 10065", "coordinates": "40.7616660604253,-73.9601389691234", "number_of_reviews": 259, "rating": 4.3, "zip_code": "10065", "cuisine": "Indian"}
{"index": {"_index": "restaurants"}}
{"business_id": "7USPKYeaAfxl0Ch9j_1l7A", "name": "Moti Mahal Delux", "address": "1149 1st Ave, New York, NY 10065", "coordinates": "40.76213,-73.9605", "number_of_reviews": 571, "rating": 3.8, "zip_code": "10065", "cuisine": "Indian"}
{"index": {"_index": "restaurants"}}
{"business_id": "kS2CP48K66yL2TwIhUqy_A", "name": "Tamarind", "address": "99 Hudson St, New York, NY 10013", "coordinates": "40.71909,-74.00892", "number_of_reviews": 1147, "rating": 3.9, "zip_code": "10013", "cuisine": "Indian"}
{"index": {"_index": "restaurants"}}
{"business_id": "iXSuNKKUBIrBX7zUerlQDQ", "name": "Benares", "address": "45 Murray St, New York, NY 10007", "coordinates": "40.71415,-74.009209", "number_of_reviews": 660, "rating": 4.0, "zip_code": "10007", "cuisine": "Indian"}
{"index": {"_index": "restaurants"}}
{"business_id": "_7BGw3YFNOTzP1Www3zB7g", "name": "Mughlai Grill", "address": "6 Clinton St, New York, NY 10002", "coordinates": "40.7210905,-73.9840446", "number_of_reviews": 542, "rating": 4.6, "zip_code": "10002", "cuisine": "Indian"}
{"index": {"_index": "restaurants"}}
{"business_id": "IysZ64t48AedrhWfz3WJGQ", "name": "Cloves Indian Cuisine", "address": "66 Madison Ave, New York, NY 10016", "coordinates": "40.74367,-73.98612", "number_of_reviews": 11, "rating": 4.9, "zip_code": "10016", "cuisine": "Indian"}
{"index": {"_index": "restaurants"}}
{"business_id": "tN37MOvqzrmpU0h0PfoDmw", "name": "Utsav", "address": "1185 Avenue Of The Americas Plz, New York, NY 10036", "coordinates": "40.75791,-73.9825", "number_of_reviews": 664, "rating": 3.5, "zip_code": "10036", "cuisine": "Indian"}
{"index": {"_index": "restaurants"}}
{"business_id": "iLjrQvbUYPj6NLkalyau0w", "name": "Hyderabadi Zaiqa", "address": "366 W 52 St, New York, NY 10019", "coordinates": "40.76439568665357,-73.9876243", "number_of_reviews": 48, "rating": 4.8, "zip_code": "10019", "cuisine": "Indian"}
{"index": {"_index": "restaurants"}}
{"business_id": "3hlAeWgSKAnSQ1tg8k8D8g", "name": "Alachi Masala", "address": "488 Amsterdam Ave, New York, NY 10024", "coordinates": "40.78620473306449,-73.97648420341335", "number_of_reviews": 292, "rating": 3.9, "zip_code": "10024", "cuisine": "Indian"}
{"index": {"_index": "restaurants"}}
{"business_id": "jYhbUh1TV7SCfPxjIhVpcg", "name": "Baar Baar", "address": "13 E 1st St, New York, NY 10003", "coordinates": "40.7244378855031,-73.9915524", "number_of_reviews": 1269, "rating": 3.9, "zip_code": "10003", "cuisine": "Indian"}
{"index": {"_index": "restaurants"}}
{"business_id": "xWVHj2XNcxEg79Nkb5Zb6Q", "name": "Semma", "address": "60 Greenwich Ave, New York, NY 10011", "coordinates": "40.736054206102615,-74.0005639", "number_of_reviews": 415, "rating": 4.1, "zip_code": "10011", "cuisine": "Indian"}
{"index": {"_index": "restaurants"}}
{"business_id": "XKy4Cy4uNgO7rxhH4yFJQQ", "name": "Mughlai Indian Cuisine", "address": "329 3rd Ave, New York, NY 10010", "coordinates": "40.7397599,-73.98226", "number_of_reviews": 469, "rating": 4.2, "zip_code": "10010", "cuisine": "Indian"}
{"index": {"_index": "restaurants"}}
{"business_id": "l_Td-NFRIdxu7m6pgJUqhQ", "name": "Manhattan Valley", "address": "2636 Broadway 100 St, New York, NY 10025", "coordinates": "40.796965,-73.969741", "number_of_reviews": 123, "rating": 3.8, "zip_code": "10025", "cuisine": "Indian"}
{"index": {"_index": "restaurants"}}
{"business_id": "GNPne4Il-itbn2sLbvMo1g", "name": "Angel Indian Restaurant", "address": "7414 37th Rd, Jackson Heights, NY 11372", "coordinates": "40.7473069226623,-73.8912814123575", "number_of_reviews": 453, "rating": 4.6, "zip_code": "11372", "cuisine": "Indian"}
{"index": {"_index": "restaurants"}}
{"business_id": "KXD44wWmrGf7mzyyr0bikw", "name": "P.S. Kitchen", "address": "246 W 48th St, New York, NY 10036", "coordinates": "40.760706,-73.986627", "number_of_reviews": 738, "rating": 4.3, "zip_code": "10036", "cuisine": "Indian"}
{"index": {"_index": "restaurants"}}
{"business_id": "BPyt7S9TdcR1u571iacg7g", "name": "The Kati Roll Company", "address": "49 W 39th St, New York, NY 10018", "coordinates": "40.752819,-73.984587", "number_of_reviews": 1685, "rating": 3.7, "zip_code": "10018", "cuisine": "Indian"}
{"index": {"_index": "restaurants"}}
{"business_id": "raGF9jAO7JOiIbFQ2_bTAg", "name": "India at Time Square", "address": "332 W 44th St, New York, NY 10036", "coordinates": "40.75941459798258,-73.99145881962656", "number_of_reviews": 108, "rating": 4.4, "zip_code": "10036", "cuisine": "Indian"}
{"index": {"_index": "restaurants"}}
{"business_id": "nd0uXNXaeaDMuMk4C1GusA", "name": "Bukhara Grill:Indian Spice Rave", "address": "217 E 49th St, New York, NY 10017", "coordinates": "40.75501,-73.97028", "number_of_reviews": 552, "rating": 3.6, "zip_code": "10017", "cuisine": "Indian"}
{"index": {"_index": "restaurants"}}
{"business_id": "ePn4BwyXeY8NKN-MWSgfrQ", "name": "Kebab Aur Sharab", "address": "247 W 72nd St, New York, NY 10023", "coordinates": "40.77951,-73.98331", "number_of_reviews": 131, "rating": 4.0, "zip_code": "10023", "cuisine": "Indian"}
{"index": {"_index": "restaurants"}}
{"business_id": "fCxjrytrEw_l9vGjSCzszg", "name": "Paisley", "address": "429 Greenwich St, New York, NY 10013", "coordinates": "40.722387,-74.0095662", "number_of_reviews": 109, "rating": 4.3, "zip_code": "10013", "cuisine": "Indian"}
{"index": {"_index": "restaurants"}}
{"business_id": "FXDMFBM-rV2s5MHzA33d2g", "name": "Bombay Grill House", "address": "764 9th Ave, New York, NY 10019", "coordinates": "40.76421,-73.988101", "number_of_reviews": 331, "rating": 4.1, "zip_code": "10019", "cuisine": "Indian"}
{"index": {"_index": "restaurants"}}
{"business_id": "jvPYm9rYK-5ddnjU30Oz4Q", "name": "Avant Garden", "address": "95 Avenue A, Fl 2, New York, NY 10009", "coordinates": "40.72567325788113,-73.98408189999999", "number_of_reviews": 448, "rating": 4.4, "zip_code": "10009", "cuisine": "Indian"}
{"index": {"_index": "restaurants"}}
{"business_id": "T1CRoZ-f-hwrjdkBvt7_kg", "name": "Indian Tanpura", "address": "564 Amsterdam Ave, New York, NY 10024", "coordinates": "40.78869,-73.97468", "number_of_reviews": 195, "rating": 4.2, "zip_code": "10024", "cuisine": "Indian"}
{"index": {"_index": "restaurants"}}
{"business_id": "VmdyRRMtUXOWV7F7w0ImwQ", "name": "Piccola Cucina Uptown", "address": "106 E 60th St, New York, NY 10022", "coordinates": "40.763174,-73.969046", "number_of_reviews": 432, "rating": 4.4, "zip_code": "10022", "cuisine": "Italian"}
{"index": {"_index": "restaurants"}}
{"business_id": "hdiuRS9sVZSMReZm4oV5SA", "name": "Da Andrea - Greenwich Village", "address": "35 W 13th St, New York, NY 10011", "coordinates": "40.736287,-73.995865", "number_of_reviews": 2204, "rating": 4.3, "zip_code": "10011", "cuisine": "Italian"}
{"index": {"_index": "restaurants"}}
{"business_id": "16ZnHpuaaBt92XWeJHCC5A", "name": "Olio e Pi\u00f9", "address": "3 Greenwich Ave, New York, NY 10014", "coordinates": "40.733798036104304,-73.99977392649927", "number_of_reviews": 5321, "rating": 4.5, "zip_code": "10014", "cuisine": "Italian"}
{"index": {"_index": "restaurants"}}
{"business_id": "DoSU8IPq-Py_YV3kYmXPfQ", "name": "Trattoria Trecolori", "address": "254 West 47th St, New York, NY 10036", "coordinates": "40.759876,-73.986767", "number_of_reviews": 2717, "rating": 4.1, "zip_code": "10036", "cuisine": "Italian"}
{"index": {"_index": "restaurants"}}
{"business_id": "OWNmOq-TAsHjGcYdCVclSw", "name": "Osteria La Baia", "address": "129 W 52nd St, New York, NY 10019", "coordinates": "40.76189587672743,-73.9806749", "number_of_reviews": 136, "rating": 4.4, "zip_code": "10019", "cuisine": "Italian"}
{"index": {"_index": "restaurants"}}
{"business_id": "hkooeEkd3oPsLD6JJrYpjA", "name": "Caf\u00e9 Luce", "address": "235 E 53rd St, New York, NY 10022", "coordinates": "40.757323,-73.967928", "number_of_reviews": 179, "rating": 4.5, "zip_code": "10022", "cuisine": "Italian"}
{"index": {"_index": "restaurants"}}
{"business_id": "vjubSxmdG_HoBBgd39geBw", "name": "Nino's 46", "address": "39 W 46th St, New York, NY 10036", "coordinates": "40.756899,-73.980507", "number_of_reviews": 1461, "rating": 4.0, "zip_code": "10036", "cuisine": "Italian"}
{"index": {"_index": "restaurants"}}
{"business_id": "26emJlm1YMFyOCezfgVk4g", "name": "Da Raffaele", "address": "883 First Ave, New York, NY 10022", "coordinates": "40.7535386913133,-73.9666010811925", "number_of_reviews": 225, "rating": 4.6, "zip_code": "10022", "cuisine": "Italian"}
{"index": {"_index": "restaurants"}}
{"business_id": "562aZEpTDdYKDe5hWuDyFA", "name": "La Gioconda", "address": "226 E 53rd St, New York, NY 10022", "coordinates": "40.75716,-73.96833", "number_of_reviews": 200, "rating": 3.9, "zip_code": "10022", "cuisine": "Italian"}
{"index": {"_index": "restaurants"}}
{"business_id": "TzVVPWK_4dhdSEpNqZwIhQ", "name": "Toscana 49", "address": "143 East 49 St, New York, NY 10017", "coordinates": "40.7556957079225,-73.9717184007168", "number_of_reviews": 356, "rating": 4.2, "zip_code": "10017", "cuisine": "Italian"}
{"index": {"_index": "restaurants"}}
{"business_id": "WG639VkTjmK5dzydd1BBJA", "name": "Rubirosa", "address": "235 Mulberry St, New York, NY 10012", "coordinates": "40.722766,-73.996233", "number_of_reviews": 3288, "rating": 4.3, "zip_code": "10012", "cuisine": "Italian"}
{"index": {"_index": "restaurants"}}
{"business_id": "OAqsZMbjv66nOMqlimnYuQ", "name": "Uva", "address": "1486 2nd Ave, New York, NY 10075", "coordinates": "40.77219299003591,-73.95561517222123", "number_of_reviews": 2806, "rating": 4.0, "zip_code": "10075", "cuisine": "Italian"}
{"index": {"_index": "restaurants"}}
{"business_id": "kIK1DBH6ODkSouhvz-4VWA", "name": "Il Tinello", "address": "244 East 46th St, New York, NY 10017", "coordinates": "40.75265874754987,-73.97093351560888", "number_of_reviews": 70, "rating": 4.9, "zip_code": "10017", "cuisine": "Italian"}
{"index": {"_index": "restaurants"}}
{"business_id": "dEOv8_ivdHp85OK_TDQh_g", "name": "Da Andrea - Chelsea", "address": "160 8th Ave, New York, NY 10011", "coordinates": "40.742041,-74.000467", "number_of_reviews": 55, "rating": 4.5, "zip_code": "10011", "cuisine": "Italian"}
{"index": {"_index": "restaurants"}}
{"business_id": "E48WbksxAk19a8vjJRVIVQ", "name": "Ramerino Italian Prime", "address": "16 E 39th St, New York, NY 10016", "coordinates": "40.75107,-73.98135", "number_of_reviews": 100, "rating": 4.7, "zip_code": "10016", "cuisine": "Italian"}
{"index": {"_index": "restaurants"}}
{"business_id": "JFmWkslCGTeuwC_Yews4-Q", "name": "Carlotto", "address": "100 E 19th St, New York, NY 10003", "coordinates": "40.7375,-73.98782", "number_of_reviews": 42, "rating": 4.4, "zip_code": "10003", "cuisine": "Italian"}
{"index": {"_index": "restaurants"}}
{"business_id": "22nKUyCIbpnzR6R3_g1ptQ", "name": "Carmine's Italian Restaurant - Times Square", "address": "200 W 44th St, New York, NY 10036", "coordinates": "40.75749848725768,-73.98665333142026", "number_of_reviews": 4799, "rating": 4.0, "zip_code": "10036", "cuisine": "Italian"}
{"index": {"_index": "restaurants"}}
{"business_id": "8oO6j7AlnAbMSJs9Oj9GIw", "name": "Osteria Delbianco", "address": "22 East 49th St, New York, NY 10017", "coordinates": "40.7573689002,-73.9764462233", "number_of_reviews": 216, "rating": 4.6, "zip_code": "10017", "cuisine": "Italian"}
{"index": {"_index": "restaurants"}}
{"business_id": "aLM9irVFlNoVlS9dGuW_Lg", "name": "Amata", "address": "209 E 56th St, New York, NY 10022", "coordinates": "40.759426,-73.967063", "number_of_reviews": 94, "rating": 4.1, "zip_code": "10022", "cuisine": "Italian"}
{"index": {"_index": "restaurants"}}
{"business_id": "V3USzFEGhuoXez4G2Rk11A", "name": "Tavola", "address": "488 9th Ave, New York, NY 10018", "coordinates": "40.755403,-73.994516", "number_of_reviews": 1407, "rating": 4.1, "zip_code": "10018", "cuisine": "Italian"}
{"index": {"_index": "restaurants"}}
{"business_id": "rp8S7scxOkVVeG7dNneMGQ", "name": "L'Artusi", "address": "228 W 10th St, New York, NY 10014", "coordinates": "40.73372,-74.00513", "number_of_reviews": 2442, "rating": 4.4, "zip_code": "10014", "cuisine": "Italian"}
{"index": {"_index": "restaurants"}}
{"business_id": "XujJhk-uQQezYgxyx-YN5Q", "name": "Parla", "address": "320 Columbus Ave, New York, NY 10023", "coordinates": "40.779604142118245,-73.9775782278624", "number_of_reviews": 39, "rating": 4.5, "zip_code": "10023", "cuisine": "Italian"}
{"index": {"_index": "restaurants"}}
{"business_id": "z7H9ApIGopnDnQaglnPTzg", "name": "Allora Ristorante", "address": "145 E 47th St, New York, NY 10017", "coordinates": "40.75433,-73.97277", "number_of_reviews": 832, "rating": 4.3, "zip_code": "10017", "cuisine": "Italian"}
{"index": {"_index": "restaurants"}}
{"business_id": "rpVX-o82EEOX8ZDnM28a_Q", "name": "Bistango", "address": "145 E 50th St, The Kimberly Hotel, New York, NY 10022", "coordinates": "40.75628,-73.97144", "number_of_reviews": 369, "rating": 4.1, "zip_code": "10022", "cuisine": "Italian"}
{"index": {"_index": "restaurants"}}
{"business_id": "JLpEKUYAtzBRQwsUL3RPIA", "name": "Il Corso", "address": "54 W 55th St, New York, NY 10019", "coordinates": "40.762441,-73.977206", "number_of_reviews": 463, "rating": 4.3, "zip_code": "10019", "cuisine": "Italian"}
{"index": {"_index": "restaurants"}}
{"business_id": "hzPBADaUBQEL30MGrvKsww", "name": "Il Tinello Ristorante Italiano", "address": "16 W 56th St, New York, NY 10019", "coordinates": "40.76256,-73.97566", "number_of_reviews": 339, "rating": 4.4, "zip_code": "10019", "cuisine": "Italian"}
{"index": {"_index": "restaurants"}}
{"business_id": "-vBfKWJ1v9YdJQT5XUbcBQ", "name": "Le Botaniste", "address": "833 Lexington Ave, New York, NY 10065", "coordinates": "40.7649986274526,-73.9659830279587", "number_of_reviews": 481, "rating": 4.5, "zip_code": "10065", "cuisine": "Italian"}
{"index": {"_index": "restaurants"}}
{"business_id": "gObd5Qhhv5yL1zBjRoltxg", "name": "Via Toscana", "address": "344 W 52nd St, New York, NY 10019", "coordinates": "40.7639195,-73.98683660000002", "number_of_reviews": 14, "rating": 4.9, "zip_code": "10019", "cuisine": "Italian"}
{"index": {"_index": "restaurants"}}
{"business_id": "LXdblKc5g1Dp17xiV-Am1w", "name": "Trattoria Dell'Arte", "address": "900 7th Ave, New York, NY 10019", "coordinates": "40.76545990643915,-73.98053136970677", "number_of_reviews": 1227, "rating": 4.0, "zip_code": "10019", "cuisine": "Italian"}
{"index": {"_index": "restaurants"}}
{"business_id": "lgFApPVpbXnsIFw1CRJORw", "name": "Cellini", "address": "65 E 54th St, New York, NY 10022", "coordinates": "40.760115,-73.972686", "number_of_reviews": 187, "rating": 3.9, "zip_code": "10022", "cuisine": "Italian"}
{"index": {"_index": "restaurants"}}
{"business_id": "1XK53gaHMFQIA4VW3B6k1Q", "name": "Abaita", "address": "145 E 49th St, New York, NY 10017", "coordinates": "40.755541483222,-73.9718742367706", "number_of_reviews": 126, "rating": 4.3, "zip_code": "10017", "cuisine": "Italian"}
{"index": {"_index": "restaurants"}}
{"business_id": "h37t9rA06Sr4EetJjKrfzw", "name": "Don Angie", "address": "103 Greenwich Ave, New York, NY 10014", "coordinates": "40.73778,-74.00197", "number_of_reviews": 848, "rating": 4.5, "zip_code": "10014", "cuisine": "Italian"}
{"index": {"_index": "restaurants"}}
{"business_id": "HpxYBu1ARzOGvuUcLJe54g", "name": "Giardino 54", "address": "400 1/2 W 54th St, New York, NY 10019", "coordinates": "40.7660476,-73.987591", "number_of_reviews": 244, "rating": 4.3, "zip_code": "10019", "cuisine": "Italian"}
{"index": {"_index": "restaurants"}}
{"business_id": "zRXMvxUX_rOliKZPpkWi_g", "name": "Valerie", "address": "45 W 45th St between 5th & 6th Ave, New York, NY 10036", "coordinates": "40.756326,-73.981117", "number_of_reviews": 896, "rating": 4.3, "zip_code": "10036", "cuisine": "Italian"}
{"index": {"_index": "restaurants"}}
{"business_id": "GjEE8vvjqb7eeHA3BGNxAw", "name": "Barolo East", "address": "214 E 49th St, New York, NY 10017", "coordinates": "40.75481,-73.97059", "number_of_reviews": 283, "rating": 4.5, "zip_code": "10017", "cuisine": "Italian"}
{"index": {"_index": "restaurants"}}
{"business_id": "7cjT33LfYSk7vrRdEaSr4w", "name": "Angeletto Restaurant", "address": "890 2nd Ave, New York, NY 10017", "coordinates": "40.753188,-73.969365", "number_of_reviews": 302, "rating": 4.3, "zip_code": "10017", "cuisine": "Italian"}
{"index": {"_index": "restaurants"}}
{"business_id": "5TX0X8w5ssIACU_pnBEq6g", "name": "Tony's Di Napoli", "address": "147 W 43rd St, New York, NY 10036", "coordinates": "40.75641,-73.98547", "number_of_reviews": 2669, "rating": 4.2, "zip_code": "10036", "cuisine": "Italian"}
{"index": {"_index": "restaurants"}}
{"business_id": "LkV96_buOU_n0br4SBO57w", "name": "Ci Siamo", "address": "440 West 33rd St, Ste 100, New York, NY 10001", "coordinates": "40.75240549384363,-73.9982864846782", "number_of_reviews": 461, "rating": 4.4, "zip_code": "10001", "cuisine": "Italian"}
{"index": {"_index": "restaurants"}}
{"business_id": "NlmP5x_Ykznd55Dc85ChUg", "name": "Nittis", "address": "523 9th Ave, New York, NY 10018", "coordinates": "40.7567,-73.99411", "number_of_reviews": 372, "rating": 4.3, "zip_code": "10018", "cuisine": "Italian"}
{"index": {"_index": "restaurants"}}
{"business_id": "Ve6GVzzJpR5QIIPdcn6ViQ", "name": "Mercato", "address": "352 W 39th St, New York, NY 10018", "coordinates": "40.75619,-73.9937", "number_of_reviews": 1072, "rating": 3.8, "zip_code": "10018", "cuisine": "Italian"}
{"index": {"_index": "restaurants"}}
{"business_id": "RXCCofQw1EjTcSN0ZeXfRA", "name": "Risotteria Melotti NYC", "address": "309 E 5th St, New York, NY 10003", "coordinates": "40.726673363853,-73.9880919456482", "number_of_reviews": 402, "rating": 4.4, "zip_code": "10003", "cuisine": "Italian"}
{"index": {"_index": "restaurants"}}
{"business_id": "raqwXUBlnc0e8c7CYmxEJQ", "name": "Scarpetta", "address": "88 Madison Ave, New York, NY 10016", "coordinates": "40.744509,-73.9856", "number_of_reviews": 2323, "rating": 4.1, "zip_code": "10016", "cuisine": "Italian"}
{"index": {"_index": "restaurants"}}
{"business_id": "MOwB9YYd-Ko6nVgSB-ltQw", "name": "Briciola", "address": "370 W 51st St, New York, NY 10019", "coordinates": "40.7637997047278,-73.9880919456482", "number_of_reviews": 1025, "rating": 4.0, "zip_code": "10019", "cuisine": "Italian"}
{"index": {"_index": "restaurants"}}
{"business_id": "hveuXFWS53S1wWpaK0nokw", "name": "Lupetto", "address": "1123 Broadway, New York, NY 10010", "coordinates": "40.74332,-73.98924", "number_of_reviews": 28, "rating": 4.5, "zip_code": "10010", "cuisine": "Italian"}
{"index": {"_index": "restaurants"}}
{"business_id": "3qIISjUYn1tbqHXi7nCLXg", "name": "Sofia Wine Bar", "address": "242 E 50th St, New York, NY 10022", "coordinates": "40.75502,-73.96913", "number_of_reviews": 754, "rating": 4.2, "zip_code": "10022", "cuisine": "Italian"}
{"index": {"_index": "restaurants"}}
{"business_id": "fyC2cBsQ0FsMJmv0jSworg", "name": "Donna Margherita", "address": "1304 2nd Ave, Ste A, New York, NY 10065", "coordinates": "40.76652,-73.9598", "number_of_reviews": 199, "rating": 4.6, "zip_code": "10065", "cuisine": "Italian"}
{"index": {"_index": "restaurants"}}
{"business_id": "OCTiJwvjoK81WoDwsTkFvA", "name": "Paesano of Mulberry Street", "address": "136 Mulberry St, New York, NY 10013", "coordinates": "40.718554,-73.997447", "number_of_reviews": 1497, "rating": 4.1, "zip_code": "10013", "cuisine": "Italian"}
{"index": {"_index": "restaurants"}}
{"business_id": "1ZKbUeFAs0ltSnAYq4ELKw", "name": "Trattoria L'incontro", "address": "21-76 31st St, Astoria, NY 11105", "coordinates": "40.77648209257472,-73.91059675544598", "number_of_reviews": 1128, "rating": 4.5, "zip_code": "11105", "cuisine": "Italian"}
{"index": {"_index": "restaurants"}}
{"business_id": "K9Ur20N51Li3sAvaV9-6Ng", "name": "Casa Limone", "address": "20 East 49th St, New York, NY 10017", "coordinates": "40.7572668651672,-73.97663240000152", "number_of_reviews": 124, "rating": 4.4, "zip_code": "10017", "cuisine": "Italian"}
